{
  "branches": [
    {
      "id": 1,
      "name": "Bank of Maharashtra - Head Office",
      "address": "Lokmangal, 1501, Shivaji Nagar, Pune - 411005",
      "phone": "020-25533981",
      "pincode": "411005",
      "city": "Pune",
      "district": "Pune",
      "state": "Maharashtra",
      "lat": 18.5314,
      "lng": 73.8447,
      "ifsc": "MAHB0000001",
      "branch_code": "000001",
      "type": "Head Office"
    },
    {
      "id": 2,
      "name": "Bank of Maharashtra - Sadashiv Peth",
      "address": "1648, Sadashiv Peth, Pune - 411030",
      "phone": "020-24456789",
      "pincode": "411030",
      "city": "Pune",
      "district": "Pune",
      "state": "Maharashtra",
      "lat": 18.5074,
      "lng": 73.8077,
      "ifsc": "MAHB0000116",
      "branch_code": "000116",
      "type": "Branch"
    },
    {
      "id": 3,
      "name": "Bank of Maharashtra - Pimpri",
      "address": "Masulkar Tower, Masulkar Colony, Pimpri, Pune - 411018",
      "phone": "020-27653421",
      "pincode": "411018",
      "city": "Pune",
      "district": "Pune",
      "state": "Maharashtra",
      "lat": 18.6278,
      "lng": 73.8131,
      "ifsc": "MAHB0000895",
      "branch_code": "000895",
      "type": "Branch"
    },
    {
      "id": 4,
      "name": "Bank of Maharashtra - Deccan Gymkhana",
      "address": "Survey No 30/3, Bhandarkar Road, Deccan Gymkhana, Pune - 411004",
      "phone": "020-25678901",
      "pincode": "411004",
      "city": "Pune",
      "district": "Pune",
      "state": "Maharashtra",
      "lat": 18.5089,
      "lng": 73.8350,
      "ifsc": "MAHB0000234",
      "branch_code": "000234",
      "type": "Branch"
    },
    {
      "id": 5,
      "name": "Bank of Maharashtra - Chinchwad",
      "address": "Office No 101, Chinchwad, Pune - 411019",
      "phone": "020-27345123",
      "pincode": "411019",
      "city": "Pune",
      "district": "Pune",
      "state": "Maharashtra",
      "lat": 18.6480,
      "lng": 73.8037,
      "ifsc": "MAHB0000567",
      "branch_code": "000567",
      "type": "Branch"
    },
    {
      "id": 6,
      "name": "Bank of Maharashtra - Kothrud",
      "address": "Kothrud, Pune - 411038",
      "phone": "020-25432109",
      "pincode": "411038",
      "city": "Pune",
      "district": "Pune",
      "state": "Maharashtra",
      "lat": 18.5074,
      "lng": 73.8077,
      "ifsc": "MAHB0000789",
      "branch_code": "000789",
      "type": "Branch"
    },
    {
      "id": 7,
      "name": "Bank of Maharashtra - Hadapsar",
      "address": "Hadapsar Industrial Estate, Pune - 411013",
      "phone": "020-26821456",
      "pincode": "411013",
      "city": "Pune",
      "district": "Pune",
      "state": "Maharashtra",
      "lat": 18.5089,
      "lng": 73.9300,
      "ifsc": "MAHB0000345",
      "branch_code": "000345",
      "type": "Branch"
    },
    {
      "id": 8,
      "name": "Bank of Maharashtra - Wakad",
      "address": "Wakad, Pune - 411057",
      "phone": "020-27421789",
      "pincode": "411057",
      "city": "Pune",
      "district": "Pune",
      "state": "Maharashtra",
      "lat": 18.5986,
      "lng": 73.7697,
      "ifsc": "MAHB0000654",
      "branch_code": "000654",
      "type": "Branch"
    },
    {
      "id": 9,
      "name": "Bank of Maharashtra - Baner",
      "address": "Baner, Pune - 411045",
      "phone": "020-27294567",
      "pincode": "411045",
      "city": "Pune",
      "district": "Pune",
      "state": "Maharashtra",
      "lat": 18.5589,
      "lng": 73.7797,
      "ifsc": "MAHB0000876",
      "branch_code": "000876",
      "type": "Branch"
    },
    {
      "id": 10,
      "name": "Bank of Maharashtra - Aundh",
      "address": "Aundh, Pune - 411007",
      "phone": "020-25886234",
      "pincode": "411007",
      "city": "Pune",
      "district": "Pune",
      "state": "Maharashtra",
      "lat": 18.5586,
      "lng": 73.8072,
      "ifsc": "MAHB0000432",
      "branch_code": "000432",
      "type": "Branch"
    },
    {
      "id": 11,
      "name": "Bank of Maharashtra - Dhankawadi",
      "address": "Dhankawadi, Pune - 411043",
      "phone": "020-24395678",
      "pincode": "411043",
      "city": "Pune",
      "district": "Pune",
      "state": "Maharashtra",
      "lat": 18.4570,
      "lng": 73.8662,
      "ifsc": "MAHB0000987",
      "branch_code": "000987",
      "type": "Branch"
    },
    {
      "id": 12,
      "name": "Bank of Maharashtra - Karve Nagar",
      "address": "Karve Nagar, Pune - 411052",
      "phone": "020-25431987",
      "pincode": "411052",
      "city": "Pune",
      "district": "Pune",
      "state": "Maharashtra",
      "lat": 18.4830,
      "lng": 73.8067,
      "ifsc": "MAHB0000543",
      "branch_code": "000543",
      "type": "Branch"
    },
    {
      "id": 13,
      "name": "Bank of Maharashtra - Sinhgad Road",
      "address": "Sinhgad Road, Pune - 411041",
      "phone": "020-24390876",
      "pincode": "411041",
      "city": "Pune",
      "district": "Pune",
      "state": "Maharashtra",
      "lat": 18.4565,
      "lng": 73.8050,
      "ifsc": "MAHB0000765",
      "branch_code": "000765",
      "type": "Branch"
    },
    {
      "id": 14,
      "name": "Bank of Maharashtra - Bibvewadi",
      "address": "Bibvewadi, Pune - 411037",
      "phone": "020-24212345",
      "pincode": "411037",
      "city": "Pune",
      "district": "Pune",
      "state": "Maharashtra",
      "lat": 18.4652,
      "lng": 73.8704,
      "ifsc": "MAHB0000876",
      "branch_code": "000876",
      "type": "Branch"
    },
    {
      "id": 15,
      "name": "Bank of Maharashtra - Warje",
      "address": "Warje, Pune - 411058",
      "phone": "020-25439876",
      "pincode": "411058",
      "city": "Pune",
      "district": "Pune",
      "state": "Maharashtra",
      "lat": 18.4830,
      "lng": 73.8037,
      "ifsc": "MAHB0000654",
      "branch_code": "000654",
      "type": "Branch"
    },
    {
      "id": 16,
      "name": "Bank of Maharashtra - Fort Branch Mumbai",
      "address": "45/47 Bombay Samachar Marg Fort, Mumbai - 400023",
      "phone": "022-22663947",
      "pincode": "400023",
      "city": "Mumbai",
      "district": "Mumbai City",
      "state": "Maharashtra",
      "lat": 18.9387,
      "lng": 72.8353,
      "ifsc": "MAHB0000002",
      "branch_code": "000002",
      "type": "Regional Office"
    },
    {
      "id": 17,
      "name": "Bank of Maharashtra - Girgaum Mumbai",
      "address": "214, Adarsha Niwas, Rajaram Mohanrai Marg, Girgaon Mumbai - 400004",
      "phone": "022-23867095",
      "pincode": "400004",
      "city": "Mumbai",
      "district": "Mumbai City",
      "state": "Maharashtra",
      "lat": 18.9520,
      "lng": 72.8081,
      "ifsc": "MAHB0000006",
      "branch_code": "000006",
      "type": "Branch"
    },
    {
      "id": 18,
      "name": "Bank of Maharashtra - Dadar",
      "address": "Samrudhi Heights, B Wing, D.L.Vaidya Road, Dadar, Mumbai - 400028",
      "phone": "022-24222885",
      "pincode": "400028",
      "city": "Mumbai",
      "district": "Mumbai City",
      "state": "Maharashtra",
      "lat": 19.0178,
      "lng": 72.8478,
      "ifsc": "MAHB0000016",
      "branch_code": "000016",
      "type": "Branch"
    },
    {
      "id": 19,
      "name": "Bank of Maharashtra - Bandra West",
      "address": "Linking Road, Bandra West, Mumbai - 400050",
      "phone": "022-26431234",
      "pincode": "400050",
      "city": "Mumbai",
      "district": "Mumbai Suburban",
      "state": "Maharashtra",
      "lat": 19.0596,
      "lng": 72.8295,
      "ifsc": "MAHB0001002",
      "branch_code": "001002",
      "type": "Branch"
    },
    {
      "id": 20,
      "name": "Bank of Maharashtra - Andheri East",
      "address": "Chakala, Andheri East, Mumbai - 400069",
      "phone": "022-26851234",
      "pincode": "400069",
      "city": "Mumbai",
      "district": "Mumbai Suburban",
      "state": "Maharashtra",
      "lat": 19.1197,
      "lng": 72.8464,
      "ifsc": "MAHB0001003",
      "branch_code": "001003",
      "type": "Branch"
    },
    {
      "id": 21,
      "name": "Bank of Maharashtra - Malad West",
      "address": "Chandra Shali Liberty Garden Rd, Cross Rd No.1 Malad West, Mumbai - 400064",
      "phone": "022-28820286",
      "pincode": "400064",
      "city": "Mumbai",
      "district": "Mumbai Suburban",
      "state": "Maharashtra",
      "lat": 19.1868,
      "lng": 72.8428,
      "ifsc": "MAHB0000117",
      "branch_code": "000117",
      "type": "Branch"
    },
    {
      "id": 22,
      "name": "Bank of Maharashtra - Borivali West",
      "address": "Chandavarkar Lane, LT Rd, Borivali West, Mumbai - 400092",
      "phone": "022-28903870",
      "pincode": "400092",
      "city": "Mumbai",
      "district": "Mumbai Suburban",
      "state": "Maharashtra",
      "lat": 19.2300,
      "lng": 72.8562,
      "ifsc": "MAHB0000092",
      "branch_code": "000092",
      "type": "Branch"
    },
    {
      "id": 23,
      "name": "Bank of Maharashtra - Ghatkopar",
      "address": "Neelkantha Krupa 353/36, R.B Mehta Rd Ghatkopar, Mumbai - 400077",
      "phone": "022-21026353",
      "pincode": "400077",
      "city": "Mumbai",
      "district": "Mumbai Suburban",
      "state": "Maharashtra",
      "lat": 19.0868,
      "lng": 72.9081,
      "ifsc": "MAHB0000228",
      "branch_code": "000228",
      "type": "Branch"
    },
    {
      "id": 24,
      "name": "Bank of Maharashtra - Thane",
      "address": "Gokhale Road, Thane - 400602",
      "phone": "022-25341567",
      "pincode": "400602",
      "city": "Thane",
      "district": "Thane",
      "state": "Maharashtra",
      "lat": 19.2183,
      "lng": 72.9781,
      "ifsc": "MAHB0002001",
      "branch_code": "002001",
      "type": "Branch"
    },
    {
      "id": 25,
      "name": "Bank of Maharashtra - Kalyan",
      "address": "Station Road, Kalyan - 421301",
      "phone": "0251-2345678",
      "pincode": "421301",
      "city": "Kalyan",
      "district": "Thane",
      "state": "Maharashtra",
      "lat": 19.2437,
      "lng": 73.1355,
      "ifsc": "MAHB0002002",
      "branch_code": "002002",
      "type": "Branch"
    },
    {
      "id": 26,
      "name": "Bank of Maharashtra - Dombivli",
      "address": "Main Road, Dombivli - 421201",
      "phone": "0251-2864321",
      "pincode": "421201",
      "city": "Dombivli",
      "district": "Thane",
      "state": "Maharashtra",
      "lat": 19.2170,
      "lng": 73.0967,
      "ifsc": "MAHB0002003",
      "branch_code": "002003",
      "type": "Branch"
    },
    {
      "id": 27,
      "name": "Bank of Maharashtra - Bhiwandi",
      "address": "Mumbai Agra Road, Bhiwandi - 421302",
      "phone": "0251-2793456",
      "pincode": "421302",
      "city": "Bhiwandi",
      "district": "Thane",
      "state": "Maharashtra",
      "lat": 19.3009,
      "lng": 73.0634,
      "ifsc": "MAHB0002004",
      "branch_code": "002004",
      "type": "Branch"
    },
    {
      "id": 28,
      "name": "Bank of Maharashtra - Ulhasnagar",
      "address": "Station Road, Ulhasnagar - 421003",
      "phone": "0251-2570987",
      "pincode": "421003",
      "city": "Ulhasnagar",
      "district": "Thane",
      "state": "Maharashtra",
      "lat": 19.2215,
      "lng": 73.1645,
      "ifsc": "MAHB0002005",
      "branch_code": "002005",
      "type": "Branch"
    },
    {
      "id": 29,
      "name": "Bank of Maharashtra - Ambernath",
      "address": "Main Road, Ambernath - 421501",
      "phone": "0251-2690876",
      "pincode": "421501",
      "city": "Ambernath",
      "district": "Thane",
      "state": "Maharashtra",
      "lat": 19.1924,
      "lng": 73.1756,
      "ifsc": "MAHB0002006",
      "branch_code": "002006",
      "type": "Branch"
    },
    {
      "id": 30,
      "name": "Bank of Maharashtra - Nashik",
      "address": "Main Road, Nashik - 422001",
      "phone": "0253-2345678",
      "pincode": "422001",
      "city": "Nashik",
      "district": "Nashik",
      "state": "Maharashtra",
      "lat": 19.9975,
      "lng": 73.7898,
      "ifsc": "MAHB0003001",
      "branch_code": "003001",
      "type": "Branch"
    },
    {
      "id": 31,
      "name": "Bank of Maharashtra - Nashik Road",
      "address": "Nashik Road, Nashik - 422101",
      "phone": "0253-2456789",
      "pincode": "422101",
      "city": "Nashik",
      "district": "Nashik",
      "state": "Maharashtra",
      "lat": 20.0504,
      "lng": 73.7749,
      "ifsc": "MAHB0003002",
      "branch_code": "003002",
      "type": "Branch"
    },
    {
      "id": 32,
      "name": "Bank of Maharashtra - Malegaon",
      "address": "Main Road, Malegaon - 423203",
      "phone": "02554-234567",
      "pincode": "423203",
      "city": "Malegaon",
      "district": "Nashik",
      "state": "Maharashtra",
      "lat": 20.5579,
      "lng": 74.5287,
      "ifsc": "MAHB0003003",
      "branch_code": "003003",
      "type": "Branch"
    },
    {
      "id": 33,
      "name": "Bank of Maharashtra - Sinnar",
      "address": "Main Road, Sinnar - 422103",
      "phone": "02551-234567",
      "pincode": "422103",
      "city": "Sinnar",
      "district": "Nashik",
      "state": "Maharashtra",
      "lat": 20.1097,
      "lng": 74.0026,
      "ifsc": "MAHB0003004",
      "branch_code": "003004",
      "type": "Branch"
    },
    {
      "id": 34,
      "name": "Bank of Maharashtra - Manmad",
      "address": "Station Road, Manmad - 423104",
      "phone": "02550-234567",
      "pincode": "423104",
      "city": "Manmad",
      "district": "Nashik",
      "state": "Maharashtra",
      "lat": 20.2526,
      "lng": 74.4392,
      "ifsc": "MAHB0003005",
      "branch_code": "003005",
      "type": "Branch"
    },
    {
      "id": 35,
      "name": "Bank of Maharashtra - Aurangabad",
      "address": "Station Road, Aurangabad - 431001",
      "phone": "0240-2345678",
      "pincode": "431001",
      "city": "Aurangabad",
      "district": "Aurangabad",
      "state": "Maharashtra",
      "lat": 19.8762,
      "lng": 75.3433,
      "ifsc": "MAHB0004001",
      "branch_code": "004001",
      "type": "Branch"
    },
    {
      "id": 36,
      "name": "Bank of Maharashtra - Aurangabad CIDCO",
      "address": "CIDCO, Aurangabad - 431003",
      "phone": "0240-2456789",
      "pincode": "431003",
      "city": "Aurangabad",
      "district": "Aurangabad",
      "state": "Maharashtra",
      "lat": 19.8587,
      "lng": 75.3247,
      "ifsc": "MAHB0004002",
      "branch_code": "004002",
      "type": "Branch"
    },
    {
      "id": 37,
      "name": "Bank of Maharashtra - Jalna",
      "address": "Main Road, Jalna - 431203",
      "phone": "02482-234567",
      "pincode": "431203",
      "city": "Jalna",
      "district": "Jalna",
      "state": "Maharashtra",
      "lat": 19.8414,
      "lng": 75.8842,
      "ifsc": "MAHB0004003",
      "branch_code": "004003",
      "type": "Branch"
    },
    {
      "id": 38,
      "name": "Bank of Maharashtra - Paithan",
      "address": "Main Road, Paithan - 431107",
      "phone": "02431-234567",
      "pincode": "431107",
      "city": "Paithan",
      "district": "Aurangabad",
      "state": "Maharashtra",
      "lat": 19.4818,
      "lng": 75.3811,
      "ifsc": "MAHB0004004",
      "branch_code": "004004",
      "type": "Branch"
    },
    {
      "id": 39,
      "name": "Bank of Maharashtra - Vaijapur",
      "address": "Main Road, Vaijapur - 423701",
      "phone": "02430-234567",
      "pincode": "423701",
      "city": "Vaijapur",
      "district": "Aurangabad",
      "state": "Maharashtra",
      "lat": 19.9267,
      "lng": 74.7294,
      "ifsc": "MAHB0004005",
      "branch_code": "004005",
      "type": "Branch"
    },
    {
      "id": 40,
      "name": "Bank of Maharashtra - Nagpur",
      "address": "Civil Lines, Nagpur - 440001",
      "phone": "0712-2345678",
      "pincode": "440001",
      "city": "Nagpur",
      "district": "Nagpur",
      "state": "Maharashtra",
      "lat": 21.1458,
      "lng": 79.0882,
      "ifsc": "MAHB0005001",
      "branch_code": "005001",
      "type": "Regional Office"
    },
    {
      "id": 41,
      "name": "Bank of Maharashtra - Nagpur Sitabuldi",
      "address": "Sitabuldi, Nagpur - 440012",
      "phone": "0712-2567890",
      "pincode": "440012",
      "city": "Nagpur",
      "district": "Nagpur",
      "state": "Maharashtra",
      "lat": 21.1498,
      "lng": 79.0806,
      "ifsc": "MAHB0005002",
      "branch_code": "005002",
      "type": "Branch"
    },
    {
      "id": 42,
      "name": "Bank of Maharashtra - Nagpur Dharampeth",
      "address": "Dharampeth, Nagpur - 440010",
      "phone": "0712-2678901",
      "pincode": "440010",
      "city": "Nagpur",
      "district": "Nagpur",
      "state": "Maharashtra",
      "lat": 21.1348,
      "lng": 79.0626,
      "ifsc": "MAHB0005003",
      "branch_code": "005003",
      "type": "Branch"
    },
    {
      "id": 43,
      "name": "Bank of Maharashtra - Solapur",
      "address": "Budhwar Peth, Solapur - 413002",
      "phone": "0217-2345678",
      "pincode": "413002",
      "city": "Solapur",
      "district": "Solapur",
      "state": "Maharashtra",
      "lat": 17.6599,
      "lng": 75.9064,
      "ifsc": "MAHB0006001",
      "branch_code": "006001",
      "type": "Branch"
    },
    {
      "id": 44,
      "name": "Bank of Maharashtra - Solapur Railway Lines",
      "address": "Railway Lines, Solapur - 413001",
      "phone": "0217-2456789",
      "pincode": "413001",
      "city": "Solapur",
      "district": "Solapur",
      "state": "Maharashtra",
      "lat": 17.6868,
      "lng": 75.9061,
      "ifsc": "MAHB0006002",
      "branch_code": "006002",
      "type": "Branch"
    },
    {
      "id": 45,
      "name": "Bank of Maharashtra - Pandharpur",
      "address": "Main Road, Pandharpur - 413304",
      "phone": "02186-234567",
      "pincode": "413304",
      "city": "Pandharpur",
      "district": "Solapur",
      "state": "Maharashtra",
      "lat": 17.6792,
      "lng": 75.3350,
      "ifsc": "MAHB0006003",
      "branch_code": "006003",
      "type": "Branch"
    },
    {
      "id": 46,
      "name": "Bank of Maharashtra - Kolhapur",
      "address": "Station Road, Kolhapur - 416001",
      "phone": "0231-2345678",
      "pincode": "416001",
      "city": "Kolhapur",
      "district": "Kolhapur",
      "state": "Maharashtra",
      "lat": 16.7050,
      "lng": 74.2433,
      "ifsc": "MAHB0007001",
      "branch_code": "007001",
      "type": "Branch"
    },
    {
      "id": 47,
      "name": "Bank of Maharashtra - Kolhapur Shahupuri",
      "address": "Shahupuri, Kolhapur - 416001",
      "phone": "0231-2456789",
      "pincode": "416001",
      "city": "Kolhapur",
      "district": "Kolhapur",
      "state": "Maharashtra",
      "lat": 16.6945,
      "lng": 74.2212,
      "ifsc": "MAHB0007002",
      "branch_code": "007002",
      "type": "Branch"
    },
    {
      "id": 48,
      "name": "Bank of Maharashtra - Ichalkaranji",
      "address": "Main Road, Ichalkaranji - 416115",
      "phone": "0230-234567",
      "pincode": "416115",
      "city": "Ichalkaranji",
      "district": "Kolhapur",
      "state": "Maharashtra",
      "lat": 16.6897,
      "lng": 74.4608,
      "ifsc": "MAHB0007003",
      "branch_code": "007003",
      "type": "Branch"
    },
    {
      "id": 49,
      "name": "Bank of Maharashtra - Sangli",
      "address": "Market Yard, Sangli - 416416",
      "phone": "0233-2345678",
      "pincode": "416416",
      "city": "Sangli",
      "district": "Sangli",
      "state": "Maharashtra",
      "lat": 16.8524,
      "lng": 74.5815,
      "ifsc": "MAHB0007004",
      "branch_code": "007004",
      "type": "Branch"
    },
    {
      "id": 50,
      "name": "Bank of Maharashtra - Miraj",
      "address": "Station Road, Miraj - 416410",
      "phone": "0233-2234567",
      "pincode": "416410",
      "city": "Miraj",
      "district": "Sangli",
      "state": "Maharashtra",
      "lat": 16.8270,
      "lng": 74.6570,
      "ifsc": "MAHB0007005",
      "branch_code": "007005",
      "type": "Branch"
    },
    {
      "id": 51,
      "name": "Bank of Maharashtra - Ahmednagar",
      "address": "Babaiwala Sweets, Urban Bank Road, Ahmednagar - 414001",
      "phone": "0241-2345098",
      "pincode": "414001",
      "city": "Ahmednagar",
      "district": "Ahmednagar",
      "state": "Maharashtra",
      "lat": 19.0948,
      "lng": 74.7480,
      "ifsc": "MAHB0000024",
      "branch_code": "000024",
      "type": "Branch"
    },
    {
      "id": 52,
      "name": "Bank of Maharashtra - Kopargaon",
      "address": "Shri Yashodhan, Godam Galli, Court Road, Kopargaon - 423601",
      "phone": "02423-223024",
      "pincode": "423601",
      "city": "Kopargaon",
      "district": "Ahmednagar",
      "state": "Maharashtra",
      "lat": 19.8815,
      "lng": 74.4764,
      "ifsc": "MAHB0000009",
      "branch_code": "000009",
      "type": "Branch"
    },
    {
      "id": 53,
      "name": "Bank of Maharashtra - Shrirampur",
      "address": "Shivaji Road, PB 28, Shrirampur - 413709",
      "phone": "02422-227167",
      "pincode": "413709",
      "city": "Shrirampur",
      "district": "Ahmednagar",
      "state": "Maharashtra",
      "lat": 19.6217,
      "lng": 74.6565,
      "ifsc": "MAHB0000029",
      "branch_code": "000029",
      "type": "Branch"
    },
    {
      "id": 54,
      "name": "Bank of Maharashtra - Rahuri",
      "address": "Navi Peth, Rahuri Dist Ahmednagar - 413705",
      "phone": "02426-232461",
      "pincode": "413705",
      "city": "Rahuri",
      "district": "Ahmednagar",
      "state": "Maharashtra",
      "lat": 19.3931,
      "lng": 74.6487,
      "ifsc": "MAHB0000097",
      "branch_code": "000097",
      "type": "Branch"
    },
    {
      "id": 55,
      "name": "Bank of Maharashtra - Sangamner",
      "address": "Veer Savarkar Marg, Naveen Nagar Road, Sangamner - 422605",
      "phone": "02425-225196",
      "pincode": "422605",
      "city": "Sangamner",
      "district": "Ahmednagar",
      "state": "Maharashtra",
      "lat": 19.5717,
      "lng": 74.2116,
      "ifsc": "MAHB0000420",
      "branch_code": "000420",
      "type": "Branch"
    },
    {
      "id": 56,
      "name": "Bank of Maharashtra - Akola M.G. Road",
      "address": "V.S. Alsi, M.G. Road, Akola - 444001",
      "phone": "0724-2435513",
      "pincode": "444001",
      "city": "Akola",
      "district": "Akola",
      "state": "Maharashtra",
      "lat": 20.7002,
      "lng": 77.0082,
      "ifsc": "MAHB0000034",
      "branch_code": "000034",
      "type": "Branch"
    },
    {
      "id": 57,
      "name": "Bank of Maharashtra - Khamgaon",
      "address": "L.I.C. Bldg, Nandura Rd, Khamgaon - 444303",
      "phone": "07263-234567",
      "pincode": "444303",
      "city": "Khamgaon",
      "district": "Buldhana",
      "state": "Maharashtra",
      "lat": 20.7063,
      "lng": 76.6842,
      "ifsc": "MAHB0000046",
      "branch_code": "000046",
      "type": "Branch"
    },
    {
      "id": 58,
      "name": "Bank of Maharashtra - Amravati Jawahar Road",
      "address": "Parvati Bhavan, Rajkamal Square, Amravati - 444601",
      "phone": "0721-2673462",
      "pincode": "444601",
      "city": "Amravati",
      "district": "Amravati",
      "state": "Maharashtra",
      "lat": 20.9319,
      "lng": 77.7523,
      "ifsc": "MAHB0000021",
      "branch_code": "000021",
      "type": "Branch"
    },
    {
      "id": 59,
      "name": "Bank of Maharashtra - Yavatmal",
      "address": "S.N. High School Building, Main Road, Yavatmal - 445001",
      "phone": "07232-245248",
      "pincode": "445001",
      "city": "Yavatmal",
      "district": "Yavatmal",
      "state": "Maharashtra",
      "lat": 20.3897,
      "lng": 78.1307,
      "ifsc": "MAHB0000047",
      "branch_code": "000047",
      "type": "Branch"
    },
    {
      "id": 60,
      "name": "Bank of Maharashtra - Chandrapur",
      "address": "Gundawar Bldg, Main Rd Gandhi Chowk, Chandrapur - 442401",
      "phone": "07172-253109",
      "pincode": "442401",
      "city": "Chandrapur",
      "district": "Chandrapur",
      "state": "Maharashtra",
      "lat": 19.9615,
      "lng": 79.2961,
      "ifsc": "MAHB0000618",
      "branch_code": "000618",
      "type": "Branch"
    },
    {
      "id": 61,
      "name": "Bank of Maharashtra - Jalgaon",
      "address": "Golani Road, Jalgaon - 425001",
      "phone": "0257-2345678",
      "pincode": "425001",
      "city": "Jalgaon",
      "district": "Jalgaon",
      "state": "Maharashtra",
      "lat": 21.0077,
      "lng": 75.5626,
      "ifsc": "MAHB0012001",
      "branch_code": "012001",
      "type": "Branch"
    },
    {
      "id": 62,
      "name": "Bank of Maharashtra - Dhule",
      "address": "Bhat Smruti Bhavan, Lane No. 4 D. Upadhyaya Marg, Dhule - 424001",
      "phone": "02562-232138",
      "pincode": "424001",
      "city": "Dhule",
      "district": "Dhule",
      "state": "Maharashtra",
      "lat": 20.9042,
      "lng": 74.7749,
      "ifsc": "MAHB0000010",
      "branch_code": "000010",
      "type": "Branch"
    },
    {
      "id": 63,
      "name": "Bank of Maharashtra - Bhusawal",
      "address": "Kinhikar Building, Ram Mandir Ward Patankar Rd, Bhusawal - 425201",
      "phone": "02582-222243",
      "pincode": "425201",
      "city": "Bhusawal",
      "district": "Jalgaon",
      "state": "Maharashtra",
      "lat": 21.0442,
      "lng": 75.7849,
      "ifsc": "MAHB0000148",
      "branch_code": "000148",
      "type": "Branch"
    },
    {
      "id": 64,
      "name": "Bank of Maharashtra - Chalisgaon",
      "address": "Narayan Bankat Vachanalaya Building, Station Road, Chalisgaon - 424101",
      "phone": "02589-222820",
      "pincode": "424101",
      "city": "Chalisgaon",
      "district": "Jalgaon",
      "state": "Maharashtra",
      "lat": 20.4596,
      "lng": 75.0157,
      "ifsc": "MAHB0000012",
      "branch_code": "000012",
      "type": "Branch"
    },
    {
      "id": 65,
      "name": "Bank of Maharashtra - Latur",
      "address": "Near Usha Kiran Talkies, Barshi Rd MIDC Area, Latur - 413512",
      "phone": "02382-221296",
      "pincode": "413512",
      "city": "Latur",
      "district": "Latur",
      "state": "Maharashtra",
      "lat": 18.4088,
      "lng": 76.5604,
      "ifsc": "MAHB0000928",
      "branch_code": "000928",
      "type": "Branch"
    },
    {
      "id": 66,
      "name": "Bank of Maharashtra - Nanded",
      "address": "Ganesh Peth, Nanded - 431602",
      "phone": "02462-264610",
      "pincode": "431602",
      "city": "Nanded",
      "district": "Nanded",
      "state": "Maharashtra",
      "lat": 19.1383,
      "lng": 77.3210,
      "ifsc": "MAHB0000720",
      "branch_code": "000720",
      "type": "Branch"
    },
    {
      "id": 67,
      "name": "Bank of Maharashtra - Ratnagiri",
      "address": "Main Road, Ratnagiri - 415612",
      "phone": "02352-234567",
      "pincode": "415612",
      "city": "Ratnagiri",
      "district": "Ratnagiri",
      "state": "Maharashtra",
      "lat": 16.9902,
      "lng": 73.3120,
      "ifsc": "MAHB0015001",
      "branch_code": "015001",
      "type": "Branch"
    },
    {
      "id": 68,
      "name": "Bank of Maharashtra - Satara",
      "address": "Shivaji Road, Satara - 415001",
      "phone": "02162-234567",
      "pincode": "415001",
      "city": "Satara",
      "district": "Satara",
      "state": "Maharashtra",
      "lat": 17.6805,
      "lng": 74.0183,
      "ifsc": "MAHB0008001",
      "branch_code": "008001",
      "type": "Branch"
    },
    {
      "id": 69,
      "name": "Bank of Maharashtra - Osmanabad",
      "address": "Station Road, Osmanabad - 413501",
      "phone": "02472-234567",
      "pincode": "413501",
      "city": "Osmanabad",
      "district": "Osmanabad",
      "state": "Maharashtra",
      "lat": 18.1760,
      "lng": 76.0395,
      "ifsc": "MAHB0010002",
      "branch_code": "010002",
      "type": "Branch"
    },
    {
      "id": 70,
      "name": "Bank of Maharashtra - Beed",
      "address": "Station Road, Beed - 431122",
      "phone": "02442-232498",
      "pincode": "431122",
      "city": "Beed",
      "district": "Beed",
      "state": "Maharashtra",
      "lat": 18.9894,
      "lng": 75.7606,
      "ifsc": "MAHB0001689",
      "branch_code": "001689",
      "type": "Branch"
    },
    {
      "id": 71,
      "name": "Bank of Maharashtra - Washim",
      "address": "Bus Stand Road, Washim - 444505",
      "phone": "07252-234567",
      "pincode": "444505",
      "city": "Washim",
      "district": "Washim",
      "state": "Maharashtra",
      "lat": 20.1097,
      "lng": 77.1370,
      "ifsc": "MAHB0013004",
      "branch_code": "013004",
      "type": "Branch"
    },
    {
      "id": 72,
      "name": "Bank of Maharashtra - Buldhana",
      "address": "Shegaon Road, Buldhana - 443001",
      "phone": "07262-234567",
      "pincode": "443001",
      "city": "Buldhana",
      "district": "Buldhana",
      "state": "Maharashtra",
      "lat": 20.5307,
      "lng": 76.1870,
      "ifsc": "MAHB0013005",
      "branch_code": "013005",
      "type": "Branch"
    },
    {
      "id": 73,
      "name": "Bank of Maharashtra - Wardha",
      "address": "Main Road, Wardha - 442001",
      "phone": "07152-234567",
      "pincode": "442001",
      "city": "Wardha",
      "district": "Wardha",
      "state": "Maharashtra",
      "lat": 20.7453,
      "lng": 78.6023,
      "ifsc": "MAHB0014001",
      "branch_code": "014001",
      "type": "Branch"
    },
    {
      "id": 74,
      "name": "Bank of Maharashtra - Gadchiroli",
      "address": "Nyalewar Building, Opposite Police Station, Gadchiroli - 442605",
      "phone": "07132-233355",
      "pincode": "442605",
      "city": "Gadchiroli",
      "district": "Gadchiroli",
      "state": "Maharashtra",
      "lat": 20.1809,
      "lng": 80.0021,
      "ifsc": "MAHB0000940",
      "branch_code": "000940",
      "type": "Branch"
    },
    {
      "id": 75,
      "name": "Bank of Maharashtra - Gondia",
      "address": "Civil Lines, Gondia - 441601",
      "phone": "07182-234567",
      "pincode": "441601",
      "city": "Gondia",
      "district": "Gondia",
      "state": "Maharashtra",
      "lat": 21.4607,
      "lng": 80.1955,
      "ifsc": "MAHB0014004",
      "branch_code": "014004",
      "type": "Branch"
    },
    {
      "id": 76,
      "name": "Bank of Maharashtra - Bhandara",
      "address": "Main Road, Bhandara - 441904",
      "phone": "07184-234567",
      "pincode": "441904",
      "city": "Bhandara",
      "district": "Bhandara",
      "state": "Maharashtra",
      "lat": 21.1704,
      "lng": 79.6526,
      "ifsc": "MAHB0014005",
      "branch_code": "014005",
      "type": "Branch"
    },
    {
      "id": 77,
      "name": "Bank of Maharashtra - Hinganghat",
      "address": "Main Road, Hinganghat - 442301",
      "phone": "07159-234567",
      "pincode": "442301",
      "city": "Hinganghat",
      "district": "Wardha",
      "state": "Maharashtra",
      "lat": 20.5496,
      "lng": 78.8372,
      "ifsc": "MAHB0014006",
      "branch_code": "014006",
      "type": "Branch"
    },
    {
      "id": 78,
      "name": "Bank of Maharashtra - Deolali",
      "address": "Station Road, Deolali - 422401",
      "phone": "0253-2567890",
      "pincode": "422401",
      "city": "Deolali",
      "district": "Nashik",
      "state": "Maharashtra",
      "lat": 19.9431,
      "lng": 73.8354,
      "ifsc": "MAHB0003006",
      "branch_code": "003006",
      "type": "Branch"
    },
    {
      "id": 79,
      "name": "Bank of Maharashtra - Yeola",
      "address": "Main Road, Yeola - 423401",
      "phone": "02425-234567",
      "pincode": "423401",
      "city": "Yeola",
      "district": "Nashik",
      "state": "Maharashtra",
      "lat": 20.0420,
      "lng": 74.4895,
      "ifsc": "MAHB0003007",
      "branch_code": "003007",
      "type": "Branch"
    },
    {
      "id": 80,
      "name": "Bank of Maharashtra - Igatpuri",
      "address": "Main Road, Igatpuri - 422403",
      "phone": "02553-234567",
      "pincode": "422403",
      "city": "Igatpuri",
      "district": "Nashik",
      "state": "Maharashtra",
      "lat": 19.6958,
      "lng": 73.5626,
      "ifsc": "MAHB0003008",
      "branch_code": "003008",
      "type": "Branch"
    },
    {
      "id": 81,
      "name": "Bank of Maharashtra - Trimbak",
      "address": "Main Road, Trimbak - 422212",
      "phone": "02594-234567",
      "pincode": "422212",
      "city": "Trimbak",
      "district": "Nashik",
      "state": "Maharashtra",
      "lat": 19.9333,
      "lng": 73.5167,
      "ifsc": "MAHB0003009",
      "branch_code": "003009",
      "type": "Branch"
    },
    {
      "id": 82,
      "name": "Bank of Maharashtra - Dindori",
      "address": "Main Road, Dindori - 422202",
      "phone": "02550-234567",
      "pincode": "422202",
      "city": "Dindori",
      "district": "Nashik",
      "state": "Maharashtra",
      "lat": 20.2097,
      "lng": 73.8439,
      "ifsc": "MAHB0003010",
      "branch_code": "003010",
      "type": "Branch"
    },
    {
      "id": 83,
      "name": "Bank of Maharashtra - Baglan",
      "address": "Main Road, Baglan - 423302",
      "phone": "02554-234567",
      "pincode": "423302",
      "city": "Baglan",
      "district": "Nashik",
      "state": "Maharashtra",
      "lat": 20.7764,
      "lng": 73.9531,
      "ifsc": "MAHB0003011",
      "branch_code": "003011",
      "type": "Branch"
    },
    {
      "id": 84,
      "name": "Bank of Maharashtra - Kalwan",
      "address": "Main Road, Kalwan - 423501",
      "phone": "02558-234567",
      "pincode": "423501",
      "city": "Kalwan",
      "district": "Nashik",
      "state": "Maharashtra",
      "lat": 20.4828,
      "lng": 74.0019,
      "ifsc": "MAHB0003012",
      "branch_code": "003012",
      "type": "Branch"
    },
    {
      "id": 85,
      "name": "Bank of Maharashtra - Niphad",
      "address": "Main Road, Niphad - 422303",
      "phone": "02551-234567",
      "pincode": "422303",
      "city": "Niphad",
      "district": "Nashik",
      "state": "Maharashtra",
      "lat": 20.0987,
      "lng": 73.9876,
      "ifsc": "MAHB0003013",
      "branch_code": "003013",
      "type": "Branch"
    },
    {
      "id": 86,
      "name": "Bank of Maharashtra - Peint",
      "address": "Main Road, Peint - 422605",
      "phone": "02425-245678",
      "pincode": "422605",
      "city": "Peint",
      "district": "Ahmednagar",
      "state": "Maharashtra",
      "lat": 19.3456,
      "lng": 74.2987,
      "ifsc": "MAHB0009002",
      "branch_code": "009002",
      "type": "Branch"
    },
    {
      "id": 87,
      "name": "Bank of Maharashtra - Newasa",
      "address": "Prarabdha Opp. Mutha Medicals, P.B.No.2, Newasa - 414603",
      "phone": "02427-241232",
      "pincode": "414603",
      "city": "Newasa",
      "district": "Ahmednagar",
      "state": "Maharashtra",
      "lat": 19.5678,
      "lng": 74.8765,
      "ifsc": "MAHB0000147",
      "branch_code": "000147",
      "type": "Branch"
    },
    {
      "id": 88,
      "name": "Bank of Maharashtra - Pathardi",
      "address": "Bhanu Prayag Complex, Koradgaon Rd, Pathardi - 414102",
      "phone": "02428-222138",
      "pincode": "414102",
      "city": "Pathardi",
      "district": "Ahmednagar",
      "state": "Maharashtra",
      "lat": 19.2108,
      "lng": 75.2876,
      "ifsc": "MAHB0000138",
      "branch_code": "000138",
      "type": "Branch"
    },
    {
      "id": 89,
      "name": "Bank of Maharashtra - Savedi",
      "address": "Sachadev Vihar, Nagar Manmad Rd, Savedi - 414003",
      "phone": "0241-2431829",
      "pincode": "414003",
      "city": "Savedi",
      "district": "Ahmednagar",
      "state": "Maharashtra",
      "lat": 19.1235,
      "lng": 74.7654,
      "ifsc": "MAHB0000937",
      "branch_code": "000937",
      "type": "Branch"
    },
    {
      "id": 90,
      "name": "Bank of Maharashtra - Karjat",
      "address": "Station Road, Karjat - 410201",
      "phone": "02148-234567",
      "pincode": "410201",
      "city": "Karjat",
      "district": "Raigad",
      "state": "Maharashtra",
      "lat": 18.9107,
      "lng": 73.3234,
      "ifsc": "MAHB0016001",
      "branch_code": "016001",
      "type": "Branch"
    },
    {
      "id": 91,
      "name": "Bank of Maharashtra - Khopoli",
      "address": "Main Road, Khopoli - 410203",
      "phone": "02192-234567",
      "pincode": "410203",
      "city": "Khopoli",
      "district": "Raigad",
      "state": "Maharashtra",
      "lat": 18.7854,
      "lng": 73.3456,
      "ifsc": "MAHB0016002",
      "branch_code": "016002",
      "type": "Branch"
    },
    {
      "id": 92,
      "name": "Bank of Maharashtra - Pen",
      "address": "Station Road, Pen - 402107",
      "phone": "02143-234567",
      "pincode": "402107",
      "city": "Pen",
      "district": "Raigad",
      "state": "Maharashtra",
      "lat": 18.7395,
      "lng": 73.0921,
      "ifsc": "MAHB0016003",
      "branch_code": "016003",
      "type": "Branch"
    },
    {
      "id": 93,
      "name": "Bank of Maharashtra - Alibag",
      "address": "Main Road, Alibag - 402201",
      "phone": "02141-234567",
      "pincode": "402201",
      "city": "Alibag",
      "district": "Raigad",
      "state": "Maharashtra",
      "lat": 18.6414,
      "lng": 72.8717,
      "ifsc": "MAHB0016004",
      "branch_code": "016004",
      "type": "Branch"
    },
    {
      "id": 94,
      "name": "Bank of Maharashtra - Mahad",
      "address": "Main Road, Mahad - 402301",
      "phone": "02140-234567",
      "pincode": "402301",
      "city": "Mahad",
      "district": "Raigad",
      "state": "Maharashtra",
      "lat": 18.0833,
      "lng": 73.4167,
      "ifsc": "MAHB0016005",
      "branch_code": "016005",
      "type": "Branch"
    },
    {
      "id": 95,
      "name": "Bank of Maharashtra - Panvel",
      "address": "Station Road, Panvel - 410206",
      "phone": "022-27451234",
      "pincode": "410206",
      "city": "Panvel",
      "district": "Raigad",
      "state": "Maharashtra",
      "lat": 18.9894,
      "lng": 73.1178,
      "ifsc": "MAHB0016006",
      "branch_code": "016006",
      "type": "Branch"
    },
    {
      "id": 96,
      "name": "Bank of Maharashtra - New Panvel",
      "address": "Sector 1, New Panvel - 410206",
      "phone": "022-27695432",
      "pincode": "410206",
      "city": "New Panvel",
      "district": "Raigad",
      "state": "Maharashtra",
      "lat": 19.0330,
      "lng": 73.1198,
      "ifsc": "MAHB0016007",
      "branch_code": "016007",
      "type": "Branch"
    },
    {
      "id": 97,
      "name": "Bank of Maharashtra - Kamothe",
      "address": "Sector 5, Kamothe - 410209",
      "phone": "022-27563789",
      "pincode": "410209",
      "city": "Kamothe",
      "district": "Raigad",
      "state": "Maharashtra",
      "lat": 19.0245,
      "lng": 73.1087,
      "ifsc": "MAHB0016008",
      "branch_code": "016008",
      "type": "Branch"
    },
    {
      "id": 98,
      "name": "Bank of Maharashtra - Kharghar",
      "address": "Sector 6, Kharghar - 410210",
      "phone": "022-27741234",
      "pincode": "410210",
      "city": "Kharghar",
      "district": "Raigad",
      "state": "Maharashtra",
      "lat": 19.0330,
      "lng": 73.0678,
      "ifsc": "MAHB0016009",
      "branch_code": "016009",
      "type": "Branch"
    },
    {
      "id": 99,
      "name": "Bank of Maharashtra - Vashi",
      "address": "Sector 17, Vashi - 400703",
      "phone": "022-27814567",
      "pincode": "400703",
      "city": "Vashi",
      "district": "Thane",
      "state": "Maharashtra",
      "lat": 19.0768,
      "lng": 72.9989,
      "ifsc": "MAHB0002007",
      "branch_code": "002007",
      "type": "Branch"
    },
    {
      "id": 100,
      "name": "Bank of Maharashtra - Nerul",
      "address": "Sector 7, Nerul - 400706",
      "phone": "022-27708901",
      "pincode": "400706",
      "city": "Nerul",
      "district": "Thane",
      "state": "Maharashtra",
      "lat": 19.0330,
      "lng": 73.0178,
      "ifsc": "MAHB0002008",
      "branch_code": "002008",
      "type": "Branch"
    }
  ]
}